RAJAPINNAN DOKUMENTAATIO

Kaikkiin osoitteisiin käytettään http-protokollan get-operaatiota.
Parametrit joita operaatiot tarvitsevat välitetään uri-parametreina.
Paluuarvot annetaan vastausen body-osassa.
Paluuarvot ovat muodoltaan joko JSON-muodossa, tai joidenkin operaatioiden tuloksena vain yksittäinen merkkijono.
Rajapinnan avulla voidaan:
	-hakea osoitteen avulla koordinaattteja. 
	-hakea koordinaattien avulla lähin kaupunki.
	-hakea koordinaattien avulla kunta jossa koordinaatit sijaitsevat.
	-hakea kymmenen lähintä järveä koordinaattien ja kunnan avulla. 


Rajapinnassa olevat resurssit:

api/weather/
Hakee halutun kaupungin tämähetkisen lämpötilan. Haluttu kaupunki tulee antaa uri-parametrina city={kaupungin_nimi}
Paluuarvona kaupungissa tällähetkellä vallitseva lämpötila. Lämpötila palautetaan vastausen bodyssa merkkijonona.
esimerkiksi:
api/weather?city=tampere
paluuarvo:
-10

api/nearestcity/
Hakee lähimmän kaupungin annetuirta koordinaateista. Koordinaatit tulee antaa uri-parametreina lati={latitude}&longi={longitude}
Paluuarvona tulee http get pyynnön surauksena body osassa pelkästään kaupungin nimi
esimerkki:
api/nearestcity?lati=62.614806&longi=28.618057
paluuarvo:
tampere


api/coordinates
Hakee syötetyn osoitteen koordinaatit. Osoite tulee antee parametrina adress={osoite}
Paluuarvona koordinaatit merkkijonona: {latitude}+","+{longitude}
esimerkiksi:
api/coordinates?address=orivedenkatu+3
paluuarvo:
61.49559959999999,23.8069994

api/lakes
Hakee lähimmät 10 järveä annetusta koordinaatista, sekä kunnan nimestä. URI parametrit tulee olla !!!!!!!!!!!
Paluuarvona palautetaan body osassa JSON muotoinen listaus kymmenestä järvestä, joka on muotoa:

esimerkiksi:
api/lakes?kunta=tampere
paluuarvo:
{
  "odata.metadata":"http://rajapinnat.ymparisto.fi/api/jarvirajapinta/1.0/odata/$metadata#Jarvi&$select=KoordErLat,KoordErLong,Nimi","value":[
    {
      "KoordErLat":"61.49600  ","KoordErLong":"23.61251  ","Nimi":"Likolammi"
    },{
      "KoordErLat":"61.50454  ","KoordErLong":"23.66846  ","Nimi":"Vaakkolammi"
    },{
      "KoordErLat":"61.51064  ","KoordErLong":"23.65008  ","Nimi":"Tohloppi"
    },{
      "KoordErLat":"61.51799  ","KoordErLong":"23.64485  ","Nimi":"Pikku-Tohloppi"
    },{
      "KoordErLat":"61.49327  ","KoordErLong":"23.59622  ","Nimi":"Mustalammi"
    },{
      "KoordErLat":"61.50829  ","KoordErLong":"23.61305  ","Nimi":"Tesomaj\u00e4rvi"
    },{
      "KoordErLat":"61.48511  ","KoordErLong":"23.80938  ","Nimi":"Iidesj\u00e4rvi"
    },{
      "KoordErLat":"61.49697  ","KoordErLong":"23.78348  ","Nimi":"Sorsalammi"
    },{
      "KoordErLat":"61.48483  ","KoordErLong":"23.77981  ","Nimi":"Pahalampi"
    },{
      "KoordErLat":"61.50429  ","KoordErLong":"23.87311  ","Nimi":"Alasj\u00e4rvi"
    }
  ]
}



api/kunta
Hakee kunnan jonka alueella syötetyt koordinaatit ovat. URI- parametreina lat={latitude}&longi={longitude}
Paluuarvona palautetaan kunnan nimi merkkijonona.
esimerkiksi:
api/kunta?lat=23.465676&longi=56.234456
paluuarvo:
Yanqul


